;ID_exp;date_exp;description;Kheight;Kx;Ky;Kz;tilx;tily;tilz;rotation;ID_subject;x;y;height;time;joints;pitch;yaw;roll;body_length;posture;re_body_angle;origin_x;origin_y;diff_re_body_angle;shr_x;shr_y;shl_x;shl_y;sp_x;sp_y
0;AW_221120;2020-11-22 14:56:17.129877;frontaldl;1.833;0.000;0.000;0.0;0.0;0.0;0.0;0.000;4037934527;-0.729;1.445;1.771;14:56:17.1298775;{'SpineBase': [0.7802435, -0.310576767, 1.60559952], 'SpineMid': [0.728927135, -0.0426473, 1.44470632], 'Neck': [0.674243152, 0.224444583, 1.26023889], 'Head': [0.7232899, 0.3348463, 1.20605171], 'ShoulderLeft': [0.56418705, 0.10217607, 1.24154067], 'ShoulderRight': [0.7879102, 0.07014521, 1.32475543], 'ElbowRight': [0.700155437, 0.306206733, 1.08697748], 'WristRight': [0.774343431, 0.06428185, 1.29300344], 'HipLeft': [0.713237643, -0.297053427, 1.55391622], 'KneeLeft': [0.547404051, -0.552769959, 1.58982456], 'AnkleLeft': [0.5241401, -0.934359, 1.86953], 'FootLeft': [0.6105117, -1.0036782, 1.88617635], 'HipRight': [0.814984739, -0.311367452, 1.59094715], 'KneeRight': [0.5095581, -0.3686194, 1.499223], 'SpineShoulder': [0.6891129, 0.157533944, 1.31084669], 'HandTipLeft': [0.5701117, -0.492033362, 1.39230812], 'ThumbLeft': [0.628987432, -0.366108477, 1.39627278], 'HandTipRight': [0.7822234, -0.05757639, 1.32446241], 'ThumbRight': [0.7032501, -0.00613145623, 1.221077]};0;0;0;0.561;Scratching;-110.400;-0.729;1.445;24.600;-0.788;1.325;-0.564;1.242;-0.689;1.311
3;AW_221120;2020-11-22 14:56:17.791148;frontaldl;1.833;0.000;0.000;0.0;0.0;0.0;0.0;0.000;4037934527;-0.629;1.318;1.509;14:56:17.7911481;{'SpineBase': [0.6077528, -0.199228957, 1.419866], 'SpineMid': [0.628688037, 0.02061859, 1.31829381], 'Neck': [0.642391443, 0.233866557, 1.20938122], 'Head': [0.677567, 0.330846727, 1.15586221], 'ShoulderLeft': [0.5437264, 0.130760491, 1.21588945], 'ElbowLeft': [0.473240554, -0.0665472448, 1.24871886], 'WristLeft': [0.4852698, -0.266865253, 1.30533922], 'HandLeft': [0.5085412, -0.335464716, 1.3293736], 'ShoulderRight': [0.753585756, 0.191154078, 1.34371912], 'ElbowRight': [0.6978224, 0.303885877, 1.07872224], 'HandRight': [0.53115195, 0.145968944, 0.909417331], 'HipLeft': [0.546117365, -0.197684258, 1.37646782], 'KneeLeft': [0.524787843, -0.4874732, 1.52586985], 'AnkleLeft': [0.5243979, -0.8060702, 1.75787437], 'FootLeft': [0.5608235, -0.859137535, 1.696894], 'HipRight': [0.644792855, -0.190103635, 1.41308713], 'KneeRight': [0.533106267, -0.4228179, 1.372059], 'SpineShoulder': [0.64040345, 0.182148561, 1.23717093], 'HandTipLeft': [0.519504, -0.408448547, 1.3503176], 'ThumbLeft': [0.535193, -0.308270544, 1.3204]};0;0;0;0.424;Scratching;-121.350;-0.629;1.318;13.650;-0.754;1.344;-0.544;1.216;-0.640;1.237
5;AW_221120;2020-11-22 14:56:18.224701;frontaldl;1.833;0.000;0.000;0.0;0.0;0.0;0.0;0.000;4037934527;-0.620;1.317;1.510;14:56:18.2247018;{'SpineBase': [0.6044646, -0.190732852, 1.419534], 'SpineMid': [0.619833231, 0.0250434987, 1.3172878], 'Neck': [0.6281409, 0.234796569, 1.20623529], 'Head': [0.6703394, 0.330656379, 1.15433538], 'ShoulderLeft': [0.5310458, 0.136548877, 1.21603882], 'ElbowLeft': [0.5014443, -0.08069772, 1.25861251], 'WristLeft': [0.522096455, -0.3031634, 1.31709015], 'HandLeft': [0.5205133, -0.379938751, 1.34312785], 'ShoulderRight': [0.7445348, 0.192305446, 1.34165192], 'ElbowRight': [0.6962816, 0.2757796, 1.0883044], 'HipLeft': [0.5471346, -0.194475919, 1.37511265], 'KneeLeft': [0.5190851, -0.490768, 1.53253615], 'AnkleLeft': [0.5236756, -0.80973506, 1.76017785], 'HipRight': [0.639634848, -0.179547176, 1.41387475], 'SpineShoulder': [0.6272063, 0.183489934, 1.23541379], 'HandTipLeft': [0.538501441, -0.445207834, 1.35709727], 'ThumbLeft': [0.5496317, -0.342434049, 1.34876537]};0;0;0;0.418;Scratching;-120.470;-0.620;1.317;14.530;-0.745;1.342;-0.531;1.216;-0.627;1.235
8;AW_221120;2020-11-22 14:56:18.889080;frontaldl;1.833;0.000;0.000;0.0;0.0;0.0;0.0;0.000;4037934527;-0.590;1.306;1.469;14:56:18.8890807;{'SpineBase': [0.5710541, -0.210161433, 1.41979814], 'SpineMid': [0.5899144, 0.0121600414, 1.30626142], 'Neck': [0.600572, 0.224609539, 1.18475509], 'Head': [0.647438765, 0.317424923, 1.13110423], 'ShoulderLeft': [0.5069051, 0.133311108, 1.19901657], 'ElbowLeft': [0.4711285, -0.08183922, 1.24141359], 'WristLeft': [0.49438107, -0.3097338, 1.31119454], 'HandLeft': [0.491597772, -0.386737376, 1.3315624], 'ShoulderRight': [0.6991302, 0.101569608, 1.309928], 'ElbowRight': [0.6560683, 0.2468355, 1.069458], 'HipLeft': [0.509368062, -0.216736, 1.3789978], 'KneeLeft': [0.488397479, -0.50443244, 1.55825913], 'AnkleLeft': [0.5200302, -0.830884159, 1.7756654], 'FootLeft': [0.544680238, -0.8869023, 1.70936143], 'HipRight': [0.611506045, -0.196827441, 1.41018569], 'KneeRight': [0.483903855, -0.43371436, 1.35473156], 'AnkleRight': [0.562315762, -0.681533158, 1.64685452], 'FootRight': [0.5857692, -0.7387614, 1.58039677], 'SpineShoulder': [0.599109769, 0.1727939, 1.21667409], 'HandTipLeft': [0.5075446, -0.451956362, 1.35515034], 'ThumbLeft': [0.524864852, -0.349851459, 1.34066677], 'HandTipRight': [0.6024764, 0.432259917, 1.14947677]};-50;-40;5;0.434;Scratching;-119.980;-0.590;1.306;15.020;-0.699;1.310;-0.507;1.199;-0.599;1.217
13;AW_221120;2020-11-22 14:56:19.986436;frontaldl;1.833;0.000;0.000;0.0;0.0;0.0;0.0;0.000;4037934527;-0.770;1.586;1.552;14:56:19.9864360;{'SpineBase': [0.748741448, -0.1031737, 1.70669436], 'SpineMid': [0.7696039, 0.123365954, 1.5857147], 'Neck': [0.785096169, 0.343881816, 1.457061], 'Head': [0.8298994, 0.424274951, 1.38380766], 'ShoulderLeft': [0.684332848, 0.256341428, 1.46149683], 'ElbowLeft': [0.60443, 0.06983433, 1.50874043], 'WristLeft': [0.627172053, -0.189449459, 1.5859189], 'HandLeft': [0.634420753, -0.210651055, 1.60548258], 'ShoulderRight': [0.890645, 0.2992402, 1.58132052], 'ElbowRight': [0.8360404, 0.39824596, 1.32075751], 'HandRight': [0.7457497, 0.53062737, 1.44800365], 'HipLeft': [0.6936649, -0.1147356, 1.6664232], 'KneeLeft': [0.6582059, -0.450939417, 1.759225], 'AnkleLeft': [0.5964656, -0.8095623, 1.91852355], 'HipRight': [0.78165853, -0.0885066539, 1.69669878], 'KneeRight': [0.8574189, -0.3527205, 1.89048755], 'AnkleRight': [0.8510901, -0.671944, 2.12310934], 'FootRight': [0.881119967, -0.729278445, 2.06159258], 'SpineShoulder': [0.7821843, 0.289729923, 1.49063468], 'HandTipLeft': [0.6421227, -0.284321249, 1.62375867], 'ThumbLeft': [0.6596708, -0.198600531, 1.597], 'HandTipRight': [0.75352633, 0.5657462, 1.507554], 'ThumbRight': [0.7494353, 0.5446419, 1.42133331]};0;0;0;0.450;Scratching;-120.150;-0.770;1.586;14.850;-0.891;1.581;-0.684;1.461;-0.782;1.491
14;AW_221120;2020-11-22 14:56:20.187287;frontaldl;1.833;0.000;0.000;0.0;0.0;0.0;0.0;0.000;4037934527;-0.795;1.624;1.543;14:56:20.1872874;{'SpineBase': [0.7743767, -0.0683630556, 1.73402143], 'SpineMid': [0.795165658, 0.160406977, 1.6236769], 'Neck': [0.8101236, 0.382466346, 1.50544834], 'Head': [0.8596652, 0.459549, 1.43181252], 'ShoulderLeft': [0.702596843, 0.291851521, 1.50601733], 'ElbowLeft': [0.6561069, 0.098417446, 1.55846965], 'WristLeft': [0.65935266, -0.139930323, 1.62146616], 'HandLeft': [0.6592477, -0.211033076, 1.656091], 'ShoulderRight': [0.915957034, 0.318488747, 1.61596179], 'ElbowRight': [0.8674782, 0.435321063, 1.36182129], 'WristRight': [0.769895852, 0.5733167, 1.49349523], 'HipLeft': [0.715194941, -0.08066763, 1.69195223], 'KneeLeft': [0.7296509, -0.399492919, 1.82390845], 'AnkleLeft': [0.6896364, -0.6900148, 2.08734345], 'FootLeft': [0.7300003, -0.755816638, 2.10423231], 'HipRight': [0.8110269, -0.0540867969, 1.72579253], 'KneeRight': [0.890041351, -0.310971856, 1.927253], 'AnkleRight': [0.855306149, -0.642656, 2.14130259], 'SpineShoulder': [0.8073673, 0.3279843, 1.53642476], 'HandTipLeft': [0.658588231, -0.278601438, 1.67689407], 'ThumbLeft': [0.687746644, -0.179237843, 1.64433336], 'HandTipRight': [0.7746942, 0.595974445, 1.55353808], 'ThumbRight': [0.7510458, 0.541112959, 1.5095]};0;0;0;0.444;Scratching;-117.260;-0.795;1.624;17.740;-0.916;1.616;-0.703;1.506;-0.807;1.536
15;AW_221120;2020-11-22 14:56:20.389295;frontaldl;1.833;0.000;0.000;0.0;0.0;0.0;0.0;0.000;4037934527;-0.800;1.656;1.555;14:56:20.3892952;{'SpineBase': [0.785114169, -0.0573321134, 1.77951038], 'SpineMid': [0.79968977, 0.174872562, 1.65575671], 'Neck': [0.809602261, 0.3979869, 1.5268842], 'Head': [0.8590366, 0.476539344, 1.45848036], 'ShoulderLeft': [0.705152333, 0.303779721, 1.52477574], 'ElbowLeft': [0.629493356, 0.119665727, 1.57449591], 'WristLeft': [0.660619, -0.1384144, 1.65496], 'HandLeft': [0.669404268, -0.202164769, 1.69474554], 'ShoulderRight': [0.930229366, 0.3757254, 1.67415321], 'ElbowRight': [0.8890317, 0.408628345, 1.42962372], 'WristRight': [0.7419855, 0.5652136, 1.50688517], 'HipLeft': [0.729333341, -0.0613705, 1.72624242], 'KneeLeft': [0.7299199, -0.350392818, 1.90774786], 'AnkleLeft': [0.7140488, -0.6594654, 2.15269923], 'FootLeft': [0.7434792, -0.736425757, 2.15908527], 'HipRight': [0.819163144, -0.05842717, 1.78665841], 'KneeRight': [0.8788825, -0.3317104, 1.97618842], 'AnkleRight': [0.850994945, -0.677146435, 2.16926742], 'SpineShoulder': [0.808020651, 0.343371, 1.56011915], 'HandTipLeft': [0.675360262, -0.269626021, 1.72351635], 'ThumbLeft': [0.6700516, -0.182883412, 1.65466678], 'HandTipRight': [0.7547278, 0.567941964, 1.55028117], 'ThumbRight': [0.7394274, 0.576021433, 1.47523522]};-40;-45;0;0.457;Scratching;-123.570;-0.800;1.656;11.430;-0.930;1.674;-0.705;1.525;-0.808;1.560
17;AW_221120;2020-11-22 14:56:20.822714;frontaldl;1.833;0.000;0.000;0.0;0.0;0.0;0.0;0.000;4037934527;-0.796;1.700;1.577;14:56:20.8227145;{'SpineBase': [0.791067243, -0.04219348, 1.84322107], 'SpineMid': [0.795582056, 0.188174471, 1.69987917], 'Neck': [0.7962821, 0.413023472, 1.549139], 'Head': [0.844204962, 0.494927615, 1.48194182], 'ShoulderLeft': [0.6981346, 0.323425353, 1.55204451], 'ElbowLeft': [0.6174163, 0.132140651, 1.60962176], 'WristLeft': [0.634331763, -0.1227919, 1.70323884], 'HandLeft': [0.6431932, -0.180954739, 1.74410963], 'ShoulderRight': [0.900370359, 0.387600571, 1.67941976], 'ElbowRight': [0.8796481, 0.429658979, 1.4637661], 'WristRight': [0.7497112, 0.610667765, 1.551902], 'HipLeft': [0.7319244, -0.0460393056, 1.78953409], 'KneeLeft': [0.72596544, -0.340928644, 1.96348143], 'AnkleLeft': [0.7164781, -0.67010957, 2.18272376], 'FootLeft': [0.75193274, -0.72668, 2.123753], 'HipRight': [0.8285429, -0.0367151536, 1.84659541], 'KneeRight': [0.8992531, -0.282526433, 2.06273842], 'AnkleRight': [0.9176329, -0.5948585, 2.30385566], 'FootRight': [0.9514621, -0.652686954, 2.24511957], 'SpineShoulder': [0.7969098, 0.3577915, 1.588126], 'HandTipLeft': [0.648467362, -0.242830932, 1.78063238], 'ThumbLeft': [0.66856426, -0.157109648, 1.72383332], 'HandTipRight': [0.759381354, 0.6240403, 1.59458709], 'ThumbRight': [0.729409456, 0.586064041, 1.50410008]};0;0;0;0.474;Scratching;-122.200;-0.796;1.700;12.800;-0.900;1.679;-0.698;1.552;-0.797;1.588
18;AW_221120;2020-11-22 14:56:21.057102;frontaldl;1.833;0.000;0.000;0.0;0.0;0.0;0.0;0.000;4037934527;-0.842;1.750;1.564;14:56:21.0571022;{'SpineBase': [0.8454647, -0.0157792866, 1.88571775], 'SpineMid': [0.842387259, 0.213156939, 1.75031054], 'Neck': [0.834114432, 0.4356567, 1.60697269], 'Head': [0.883220136, 0.515244365, 1.53918934], 'ShoulderLeft': [0.7355195, 0.3449869, 1.6074338], 'ElbowLeft': [0.6519944, 0.162835225, 1.65338063], 'WristLeft': [0.6628808, -0.0946286, 1.74133646], 'HandLeft': [0.6737502, -0.1584647, 1.78154922], 'ShoulderRight': [0.9623384, 0.403306156, 1.75059032], 'ElbowRight': [0.908518, 0.463621438, 1.50147808], 'WristRight': [0.787435949, 0.6201975, 1.54295516], 'HandRight': [0.7836415, 0.6110828, 1.59643161], 'HipLeft': [0.78064394, -0.0230746157, 1.82859135], 'KneeLeft': [0.759996951, -0.329345167, 1.986263], 'AnkleLeft': [0.72112, -0.6656124, 2.19247746], 'FootLeft': [0.736418545, -0.750173032, 2.19042921], 'HipRight': [0.887724161, -0.008065522, 1.89258683], 'KneeRight': [0.9525834, -0.23554337, 2.12774754], 'AnkleRight': [1.01063764, -0.5086863, 2.404825], 'FootRight': [1.04316413, -0.5673209, 2.344405], 'SpineShoulder': [0.837090731, 0.381052732, 1.64424074], 'HandTipLeft': [0.674931765, -0.2197487, 1.81691968], 'ThumbLeft': [0.702813447, -0.131692708, 1.76757169], 'HandTipRight': [0.800627768, 0.630289257, 1.61402977], 'ThumbRight': [0.797737241, 0.632539, 1.58450007]};0;0;0;0.465;Scratching;-122.260;-0.842;1.750;12.740;-0.962;1.751;-0.736;1.607;-0.837;1.644
19;AW_221120;2020-11-22 14:56:21.296517;frontaldl;1.833;0.000;0.000;0.0;0.0;0.0;0.0;0.000;4037934527;-0.938;1.872;1.548;14:56:21.2965172;{'SpineBase': [0.9326125, 0.0189252067, 1.99409235], 'SpineMid': [0.93769294, 0.251759768, 1.87238359], 'Neck': [0.9373684, 0.478269041, 1.74253917], 'Head': [0.9888961, 0.5579863, 1.676202], 'ShoulderLeft': [0.8351095, 0.3847632, 1.73823786], 'ElbowLeft': [0.753442168, 0.194853961, 1.787757], 'WristLeft': [0.7552977, -0.06980092, 1.85051429], 'HandLeft': [0.7669601, -0.1300562, 1.884473], 'ShoulderRight': [1.03953731, 0.3765573, 1.83430731], 'ElbowRight': [0.9539848, 0.531761348, 1.61269844], 'HipLeft': [0.8629662, 0.0257312581, 1.93734384], 'KneeLeft': [0.8271734, -0.301161349, 2.05721951], 'AnkleLeft': [0.7251186, -0.7897753, 2.28284931], 'FootLeft': [0.7633744, -0.8557501, 2.21696949], 'HipRight': [0.9788905, 0.0119651472, 2.001429], 'KneeRight': [1.06047118, -0.204243287, 2.222305], 'AnkleRight': [1.07424939, -0.502248466, 2.480889], 'FootRight': [1.09274328, -0.563755333, 2.41295815], 'SpineShoulder': [0.938398659, 0.422640651, 1.77645445], 'HandTipLeft': [0.7749426, -0.188555226, 1.91442275], 'ThumbLeft': [0.7838084, -0.137242645, 1.86691666]};-35;-45;5;0.459;Scratching;-115.170;-0.938;1.872;19.830;-1.040;1.834;-0.835;1.738;-0.938;1.776
20;AW_221120;2020-11-22 14:56:21.522051;frontaldl;1.833;0.000;0.000;0.0;0.0;0.0;0.0;0.000;4037934527;-1.010;1.969;1.583;14:56:21.5220517;{'SpineBase': [1.00119889, 0.08023134, 2.09334254], 'SpineMid': [1.01011574, 0.3152589, 1.9690702], 'Neck': [1.013965, 0.5442985, 1.836754], 'Head': [1.06355321, 0.620276153, 1.77023792], 'ShoulderLeft': [0.9069723, 0.4573567, 1.845361], 'ElbowLeft': [0.823193252, 0.239897251, 1.91375744], 'WristLeft': [0.8395853, -0.007321514, 1.956912], 'HandLeft': [0.8515966, -0.0607166, 1.99311447], 'ShoulderRight': [1.13379824, 0.442755163, 1.93003762], 'ElbowRight': [1.06435442, 0.6050951, 1.70898259], 'HipLeft': [0.935077, 0.08189955, 2.04733133], 'KneeLeft': [0.8958135, -0.249078512, 2.1590457], 'AnkleLeft': [0.820848465, -0.5907224, 2.34876418], 'FootLeft': [0.8211933, -0.680209, 2.33788276], 'HipRight': [1.04354739, 0.07743353, 2.089924], 'KneeRight': [1.09756839, -0.15787451, 2.2763648], 'AnkleRight': [1.08102918, -0.481931955, 2.50421047], 'SpineShoulder': [1.01392651, 0.4879993, 1.87126017], 'HandTipLeft': [0.8552869, -0.114814065, 2.01507282], 'ThumbLeft': [0.8688809, -0.0603257641, 1.97348]};-35;-45;5;0.464;Scratching;-110.470;-1.010;1.969;24.530;-1.134;1.930;-0.907;1.845;-1.014;1.871
21;AW_221120;2020-11-22 14:56:21.723153;frontaldl;1.833;0.000;0.000;0.0;0.0;0.0;0.0;0.000;4037934527;-1.028;2.013;1.574;14:56:21.7231539;{'SpineBase': [1.01938319, 0.109640189, 2.13468552], 'SpineMid': [1.02814162, 0.345201, 2.01268673], 'Neck': [1.03172207, 0.574688554, 1.88332868], 'Head': [1.08107758, 0.6525019, 1.81806862], 'ShoulderLeft': [0.9207023, 0.487066358, 1.88907], 'ElbowLeft': [0.8348752, 0.259925127, 1.96688533], 'WristLeft': [0.8554508, 0.00668787956, 2.02498055], 'HandLeft': [0.8684243, -0.03302791, 2.06470275], 'ShoulderRight': [1.1635083, 0.485596716, 1.98733616], 'HipLeft': [0.953586042, 0.106033154, 2.09081054], 'KneeLeft': [0.9575749, -0.1928215, 2.26161671], 'AnkleLeft': [0.9098252, -0.466702938, 2.542955], 'FootLeft': [0.934539139, -0.5507576, 2.53922081], 'HipRight': [1.06136966, 0.110942692, 2.129011], 'KneeRight': [1.09042168, -0.170966431, 2.31751752], 'AnkleRight': [1.07383645, -0.5036926, 2.53388667], 'FootRight': [1.08973169, -0.5656067, 2.46488237], 'SpineShoulder': [1.031741, 0.5182825, 1.91704726], 'HandTipLeft': [0.881566346, -0.0788513944, 2.08411813], 'ThumbLeft': [0.8957547, -0.036951486, 2.05481243]};-60;-45;20;0.463;Scratching;-112.030;-1.028;2.013;22.970;-1.164;1.987;-0.921;1.889;-1.032;1.917
22;AW_221120;2020-11-22 14:56:21.922296;frontaldl;1.833;0.000;0.000;0.0;0.0;0.0;0.0;0.000;4037934527;-1.016;2.047;1.694;14:56:21.9222969;{'SpineBase': [1.01072228, 0.131136611, 2.18068], 'SpineMid': [1.01637328, 0.3619538, 2.04658914], 'Neck': [1.01736891, 0.587289035, 1.90674043], 'Head': [1.06962562, 0.663563132, 1.84087455], 'ShoulderLeft': [0.9057728, 0.501044035, 1.91336441], 'ElbowLeft': [0.824352741, 0.325457484, 1.97847378], 'WristLeft': [0.8559323, 0.0644563362, 2.05055475], 'HandLeft': [0.86566323, 0.00196125451, 2.08749914], 'ShoulderRight': [1.14303076, 0.518697739, 2.0117054], 'HipLeft': [0.94708, 0.12302386, 2.1384778], 'KneeLeft': [0.9530617, -0.154435709, 2.33726478], 'AnkleLeft': [0.926445365, -0.589052439, 2.6597712], 'FootLeft': [0.97189033, -0.6473626, 2.585486], 'HipRight': [1.051195, 0.136310652, 2.17310858], 'KneeRight': [1.0537889, -0.143727437, 2.36954665], 'AnkleRight': [1.06385958, -0.6125767, 2.619251], 'FootRight': [1.084653, -0.668736339, 2.57512879], 'SpineShoulder': [1.017997, 0.5318522, 1.94290471], 'HandTipLeft': [0.879009664, -0.05961626, 2.12440586], 'ThumbLeft': [0.8875615, 0.0278803073, 2.06736374]};-45;-50;20;0.466;Scratching;-112.510;-1.016;2.047;22.490;-1.143;2.012;-0.906;1.913;-1.018;1.943
23;AW_221120;2020-11-22 14:56:22.152867;frontaldl;1.833;0.000;0.000;0.0;0.0;0.0;0.0;0.000;4037934527;-1.008;2.084;1.692;14:56:22.1528672;{'SpineBase': [1.00540519, 0.142048046, 2.24126625], 'SpineMid': [1.00789607, 0.371533871, 2.08352757], 'Neck': [1.00680172, 0.5938994, 1.920336], 'Head': [1.05744684, 0.6629442, 1.85091829], 'ShoulderLeft': [0.895676434, 0.511184931, 1.93145978], 'ElbowLeft': [0.808099031, 0.288284421, 2.02205658], 'WristLeft': [0.8381331, 0.0536818244, 2.09249878], 'HandLeft': [0.843471944, -0.00685353857, 2.13748264], 'ShoulderRight': [1.12358677, 0.5134538, 2.03115], 'ElbowRight': [1.031141, 0.6432405, 1.79649961], 'WristRight': [0.961832047, 0.791276, 1.90682626], 'HipLeft': [0.943140268, 0.132428348, 2.19948721], 'KneeLeft': [0.9435492, -0.1576455, 2.38276815], 'AnkleLeft': [0.93044436, -0.5873203, 2.66071534], 'FootLeft': [0.969015062, -0.6420273, 2.59611487], 'HipRight': [1.04476237, 0.148218438, 2.23354483], 'KneeRight': [1.06481314, -0.144338414, 2.41160154], 'AnkleRight': [1.08580625, -0.5997923, 2.65004182], 'FootRight': [1.13155818, -0.6375851, 2.612418], 'SpineShoulder': [1.00775588, 0.539398134, 1.96207511], 'HandTipLeft': [0.8603836, -0.0577477925, 2.163037], 'ThumbLeft': [0.8534547, 0.003106585, 2.1093812]};-55;-45;20;0.486;Scratching;-113.630;-1.008;2.084;21.370;-1.124;2.031;-0.896;1.931;-1.008;1.962
24;AW_221120;2020-11-22 14:56:22.353681;frontaldl;1.833;0.000;0.000;0.0;0.0;0.0;0.0;0.000;4037934527;-1.014;2.105;1.727;14:56:22.3536811;{'SpineBase': [1.00784838, 0.155895159, 2.25360775], 'SpineMid': [1.013702, 0.38848874, 2.10507321], 'Neck': [1.01454425, 0.6146001, 1.950016], 'Head': [1.06845653, 0.6841161, 1.88272536], 'ShoulderLeft': [0.902454734, 0.529452264, 1.95496833], 'ElbowLeft': [0.810510039, 0.2939293, 2.04946518], 'WristLeft': [0.8242525, 0.0685456544, 2.122436], 'HandLeft': [0.827244461, 0.011940063, 2.16701078], 'ShoulderRight': [1.12143385, 0.529373467, 2.05109072], 'WristRight': [0.9678575, 0.798715, 1.9184742], 'HipLeft': [0.9432146, 0.147792712, 2.207818], 'KneeLeft': [0.9385787, -0.146263272, 2.38627768], 'AnkleLeft': [0.9289831, -0.481126666, 2.59860969], 'FootLeft': [0.9467819, -0.5446139, 2.53141427], 'HipRight': [1.05053973, 0.160508156, 2.24988723], 'KneeRight': [1.10249317, -0.09461811, 2.465175], 'AnkleRight': [1.17610228, -0.5276035, 2.79527831], 'FootRight': [1.24136972, -0.5598489, 2.76425743], 'SpineShoulder': [1.01521945, 0.5590922, 1.99011064], 'HandTipLeft': [0.843262255, -0.0386732556, 2.19956064], 'ThumbLeft': [0.798646033, 0.007826408, 2.1678226], 'HandTipRight': [0.983513951, 0.8031549, 1.99250674]};0;0;0;0.482;Scratching;-113.700;-1.014;2.105;21.300;-1.121;2.051;-0.902;1.955;-1.015;1.990
25;AW_221120;2020-11-22 14:56:22.555181;frontaldl;1.833;0.000;0.000;0.0;0.0;0.0;0.0;0.000;4037934527;-1.048;2.158;1.731;14:56:22.5551810;{'SpineBase': [1.03826535, 0.180594429, 2.294353], 'SpineMid': [1.047745, 0.415852129, 2.15775943], 'Neck': [1.05224025, 0.644695938, 2.01379585], 'Head': [1.11302054, 0.714147151, 1.950283], 'ShoulderLeft': [0.9411177, 0.5583541, 2.01074123], 'ElbowLeft': [0.845267236, 0.3344806, 2.087664], 'WristLeft': [0.8541132, 0.08834114, 2.15372], 'HandLeft': [0.863913357, 0.042255573, 2.19361567], 'ShoulderRight': [1.1506393, 0.538771033, 2.09961176], 'ElbowRight': [1.12631619, 0.7054765, 1.87316453], 'WristRight': [1.00866365, 0.8330607, 1.98362708], 'HipLeft': [0.9690952, 0.1741188, 2.24590039], 'KneeLeft': [0.959973454, -0.136556312, 2.39995646], 'AnkleLeft': [0.9318075, -0.473907948, 2.60744262], 'FootLeft': [0.9400009, -0.563795, 2.59715557], 'HipRight': [1.08479691, 0.1830077, 2.29284477], 'KneeRight': [1.15080035, -0.0402622968, 2.53317475], 'AnkleRight': [1.24857175, -0.419492126, 2.947101], 'FootRight': [1.30460906, -0.4572152, 2.92291164], 'SpineShoulder': [1.05199718, 0.58848244, 2.05117488], 'HandTipLeft': [0.872194052, -0.00293149473, 2.21924567], 'ThumbLeft': [0.8331155, 0.0315943025, 2.20185733], 'HandTipRight': [1.01786816, 0.841729462, 2.00141931]};0;0;0;0.475;Scratching;-112.980;-1.048;2.158;22.020;-1.151;2.100;-0.941;2.011;-1.052;2.051
26;AW_221120;2020-11-22 14:56:22.764348;frontaldl;1.833;0.000;0.000;0.0;0.0;0.0;0.0;0.000;4037934527;-1.123;2.247;1.552;14:56:22.7643483;{'SpineBase': [1.10748935, 0.217118189, 2.371797], 'SpineMid': [1.12283611, 0.450674683, 2.24718952], 'Neck': [1.132773, 0.6777029, 2.114863], 'Head': [1.18806922, 0.738356, 2.05864215], 'ShoulderLeft': [1.020039, 0.5932097, 2.11292028], 'ElbowLeft': [0.932728648, 0.389270872, 2.18235874], 'WristLeft': [0.94636184, 0.172322556, 2.22832227], 'HandLeft': [0.957300663, 0.108274452, 2.259695], 'ShoulderRight': [1.23200512, 0.563851058, 2.2019093], 'ElbowRight': [1.1671648, 0.720995843, 1.97585213], 'WristRight': [1.09754348, 0.872330666, 2.11837673], 'HipLeft': [1.03405416, 0.222670436, 2.31180763], 'KneeLeft': [1.0115335, -0.104496881, 2.43628073], 'AnkleLeft': [0.9452835, -0.456282318, 2.61141181], 'FootLeft': [0.9448994, -0.548138142, 2.5959444], 'HipRight': [1.15755761, 0.206679791, 2.383709], 'KneeRight': [1.23705268, -0.0163044054, 2.61931443], 'AnkleRight': [1.26217234, -0.301693827, 2.8908577], 'FootRight': [1.27441967, -0.366581142, 2.821059], 'SpineShoulder': [1.13122165, 0.6219551, 2.14934635], 'HandTipLeft': [0.9537201, 0.048396036, 2.29059649], 'ThumbLeft': [0.9260008, 0.1283877, 2.2551], 'HandTipRight': [1.10782743, 0.890933156, 2.13039064], 'ThumbRight': [1.09956443, 0.8900914, 2.114]};0;0;0;0.463;Scratching;-112.770;-1.123;2.247;22.230;-1.232;2.202;-1.020;2.113;-1.131;2.149
27;AW_221120;2020-11-22 14:56:22.987719;frontaldl;1.833;0.000;0.000;0.0;0.0;0.0;0.0;0.000;4037934527;-1.199;2.339;1.550;14:56:22.9877190;{'SpineBase': [1.1818248, 0.285822749, 2.461215], 'SpineMid': [1.19894564, 0.5159156, 2.33870745], 'Neck': [1.21134591, 0.740310252, 2.20914316], 'Head': [1.26840436, 0.7931175, 2.14561129], 'ShoulderLeft': [1.10253561, 0.652906, 2.205519], 'ElbowLeft': [1.02004206, 0.450195253, 2.28772569], 'WristLeft': [1.04137015, 0.2533747, 2.32678962], 'HandLeft': [1.05078185, 0.224333391, 2.35193634], 'ShoulderRight': [1.32733321, 0.643879831, 2.300549], 'ElbowRight': [1.26926124, 0.78602165, 2.06318283], 'HipLeft': [1.11076224, 0.290395021, 2.4062686], 'KneeLeft': [1.07439482, -0.03925237, 2.52542543], 'AnkleLeft': [1.00709069, -0.3955252, 2.69223666], 'FootLeft': [1.02359962, -0.4589064, 2.62298942], 'HipRight': [1.22986436, 0.276349, 2.467611], 'KneeRight': [1.28511059, 0.03825404, 2.69936562], 'AnkleRight': [1.27122319, -0.28548646, 2.92849374], 'FootRight': [1.2864002, -0.3501386, 2.859629], 'SpineShoulder': [1.20912349, 0.685145, 2.24288321], 'HandTipLeft': [1.05320847, 0.157445565, 2.36836672], 'ThumbLeft': [1.030647, 0.222245857, 2.355909]};0;0;0;0.456;Scratching;-112.920;-1.199;2.339;22.080;-1.327;2.301;-1.103;2.206;-1.209;2.243
28;AW_221120;2020-11-22 14:56:23.222091;frontaldl;1.833;0.000;0.000;0.0;0.0;0.0;0.0;0.000;4037934527;-1.235;2.380;1.552;14:56:23.2220915;{'SpineBase': [1.2143383, 0.316798925, 2.50154948], 'SpineMid': [1.2352072, 0.5476401, 2.38041639], 'Neck': [1.251166, 0.772541165, 2.25239825], 'Head': [1.2986455, 0.8311228, 2.1896472], 'ShoulderLeft': [1.13269341, 0.686760843, 2.25182128], 'ElbowLeft': [1.043935, 0.47947523, 2.334749], 'WristLeft': [1.05363, 0.2832302, 2.38019276], 'HandLeft': [1.06336308, 0.253627926, 2.40495014], 'ShoulderRight': [1.36428356, 0.679540932, 2.33436537], 'ElbowRight': [1.30435872, 0.797624052, 2.12838745], 'HandRight': [1.23966074, 0.850699067, 2.05691576], 'HipLeft': [1.14810145, 0.317032874, 2.45575953], 'KneeLeft': [1.15380287, 0.0127051035, 2.62122917], 'AnkleLeft': [1.12022817, -0.299340725, 2.863736], 'FootLeft': [1.12921846, -0.3885808, 2.864118], 'HipRight': [1.25679541, 0.31032297, 2.498181], 'KneeRight': [1.31858635, 0.06355869, 2.71784878], 'AnkleRight': [1.28392959, -0.274103433, 2.92538953], 'SpineShoulder': [1.24807155, 0.717251658, 2.28574324], 'HandTipLeft': [1.07904148, 0.190985262, 2.42362], 'ThumbLeft': [1.05380869, 0.244628727, 2.4165], 'HandTipRight': [1.186213, 0.8774667, 2.0336647], 'ThumbRight': [1.21038675, 0.8852311, 2.04575014]};0;0;0;0.456;Scratching;-109.620;-1.235;2.380;25.380;-1.364;2.334;-1.133;2.252;-1.248;2.286
29;AW_221120;2020-11-22 14:56:23.422286;frontaldl;1.833;0.000;0.000;0.0;0.0;0.0;0.0;0.000;4037934527;-1.235;2.396;1.552;14:56:23.4222869;{'SpineBase': [1.21486568, 0.3276226, 2.51714778], 'SpineMid': [1.23494875, 0.5584622, 2.396393], 'Neck': [1.2489717, 0.7846999, 2.27006769], 'Head': [1.29896915, 0.8431111, 2.20952153], 'ShoulderLeft': [1.13308167, 0.692989469, 2.26344252], 'ElbowLeft': [1.04988444, 0.481817, 2.34597445], 'WristLeft': [1.07205963, 0.241349235, 2.41220617], 'HandLeft': [1.08033347, 0.1907661, 2.45296359], 'ShoulderRight': [1.36233354, 0.689622939, 2.35031033], 'ElbowRight': [1.30315781, 0.8266874, 2.13372374], 'HipLeft': [1.14875937, 0.334012121, 2.47205043], 'KneeLeft': [1.141508, 0.0417081863, 2.65577841], 'AnkleLeft': [1.13211656, -0.422131717, 2.962971], 'FootLeft': [1.14935708, -0.4788182, 2.906022], 'HipRight': [1.25720847, 0.316518635, 2.51436734], 'KneeRight': [1.30738878, 0.0619805865, 2.732398], 'AnkleRight': [1.27552974, -0.282381773, 2.929544], 'FootRight': [1.289072, -0.34719342, 2.85989237], 'SpineShoulder': [1.24651945, 0.728926241, 2.30292559], 'HandTipLeft': [1.08247626, 0.157793149, 2.46340084], 'ThumbLeft': [1.04972839, 0.178107336, 2.45160317]};0;0;0;0.456;Scratching;-110.750;-1.235;2.396;24.250;-1.362;2.350;-1.133;2.263;-1.247;2.303
30;AW_221120;2020-11-22 14:56:23.652634;frontaldl;1.833;0.000;0.000;0.0;0.0;0.0;0.0;0.000;4037934527;-1.229;2.402;1.716;14:56:23.6526347;{'SpineBase': [1.21289337, 0.340546638, 2.52039957], 'SpineMid': [1.22928619, 0.568122566, 2.40204215], 'Neck': [1.24094164, 0.791650355, 2.27716136], 'Head': [1.29325414, 0.8514071, 2.21713638], 'ShoulderLeft': [1.1283021, 0.697321534, 2.26981139], 'ElbowLeft': [1.05043256, 0.4899148, 2.34888768], 'WristLeft': [1.086404, 0.237804472, 2.40680242], 'HandLeft': [1.10512722, 0.183221623, 2.4501214], 'ShoulderRight': [1.35749555, 0.748526, 2.366267], 'ElbowRight': [1.28827691, 0.861995161, 2.11676955], 'HipLeft': [1.14912391, 0.350984663, 2.466915], 'KneeLeft': [1.12893832, 0.0660129562, 2.66049051], 'AnkleLeft': [1.12628543, -0.418282926, 2.97103715], 'FootLeft': [1.14184666, -0.4749108, 2.91337252], 'HipRight': [1.25386178, 0.326071352, 2.52396917], 'KneeRight': [1.25596559, 0.0563796125, 2.73442221], 'AnkleRight': [1.25918484, -0.2185666, 2.839141], 'SpineShoulder': [1.23906338, 0.7365949, 2.30963469], 'HandTipLeft': [1.12208712, 0.131923482, 2.477178], 'ThumbLeft': [1.07095015, 0.179489747, 2.455154]};0;0;0;0.449;Scratching;-112.820;-1.229;2.402;22.180;-1.357;2.366;-1.128;2.270;-1.239;2.310
31;AW_221120;2020-11-22 14:56:23.853416;frontaldl;1.833;0.000;0.000;0.0;0.0;0.0;0.0;0.000;4037934527;-1.225;2.403;1.539;14:56:23.8534160;{'SpineBase': [1.21250856, 0.347775161, 2.52006721], 'SpineMid': [1.22520542, 0.5726614, 2.40326643], 'Neck': [1.23241806, 0.793346643, 2.280099], 'Head': [1.28582346, 0.8553719, 2.22136545], 'ShoulderLeft': [1.1203351, 0.6992148, 2.27075], 'ElbowLeft': [1.0482316, 0.486998379, 2.34970117], 'WristLeft': [1.07617378, 0.242036745, 2.3998518], 'HandLeft': [1.0935936, 0.180686235, 2.440187], 'ShoulderRight': [1.36038184, 0.7548545, 2.37828422], 'HipLeft': [1.14970767, 0.357543856, 2.463928], 'KneeLeft': [1.12903857, 0.07228134, 2.657261], 'AnkleLeft': [1.13277, -0.2724565, 2.854516], 'FootLeft': [1.15719914, -0.335286438, 2.78841472], 'HipRight': [1.25186241, 0.332268119, 2.52657676], 'KneeRight': [1.29806507, 0.065775916, 2.73329043], 'AnkleRight': [1.26869345, -0.2786892, 2.92970228], 'FootRight': [1.29235673, -0.3415571, 2.863915], 'SpineShoulder': [1.23173416, 0.7391249, 2.31212378], 'HandTipLeft': [1.106733, 0.12731865, 2.46419168], 'ThumbLeft': [1.0630784, 0.187281668, 2.44553924]};-30;-40;-25;0.444;Scratching;-114.130;-1.225;2.403;20.870;-1.360;2.378;-1.120;2.271;-1.232;2.312
32;AW_221120;2020-11-22 14:56:24.055254;frontaldl;1.833;0.000;0.000;0.0;0.0;0.0;0.0;0.000;4037934527;-1.219;2.405;1.543;14:56:24.0552545;{'SpineBase': [1.20664358, 0.3469492, 2.52094269], 'SpineMid': [1.21905947, 0.5728396, 2.40516973], 'Neck': [1.22605669, 0.793656766, 2.28252339], 'Head': [1.27796388, 0.8583098, 2.223185], 'ShoulderLeft': [1.11639893, 0.699188948, 2.2715137], 'ElbowLeft': [1.044636, 0.481839359, 2.34695649], 'WristLeft': [1.07061076, 0.240901217, 2.40149879], 'HandLeft': [1.08672225, 0.181836888, 2.44035316], 'ShoulderRight': [1.33240652, 0.7071292, 2.35605574], 'HipLeft': [1.14036119, 0.357467622, 2.4649632], 'KneeLeft': [1.12771893, 0.07289452, 2.65918255], 'AnkleLeft': [1.12541044, -0.4196407, 2.97212672], 'FootLeft': [1.15143311, -0.4811569, 2.905638], 'HipRight': [1.24840879, 0.330199748, 2.52765536], 'KneeRight': [1.29405141, 0.06272757, 2.73339438], 'AnkleRight': [1.26672363, -0.280721217, 2.93168354], 'FootRight': [1.28265727, -0.344901145, 2.86249065], 'SpineShoulder': [1.22525394, 0.7394045, 2.31451488], 'HandTipLeft': [1.098729, 0.12766017, 2.460756], 'ThumbLeft': [1.05731153, 0.171133623, 2.44220686]};0;0;0;0.444;Scratching;-111.370;-1.219;2.405;23.630;-1.332;2.356;-1.116;2.272;-1.225;2.315
33;AW_221120;2020-11-22 14:56:24.255667;frontaldl;1.833;0.000;0.000;0.0;0.0;0.0;0.0;0.000;4037934527;-1.213;2.405;1.723;14:56:24.2556677;{'SpineBase': [1.20150959, 0.3464523, 2.52028418], 'SpineMid': [1.21346378, 0.573055863, 2.40479517], 'Neck': [1.21991777, 0.793812156, 2.282236], 'Head': [1.270542, 0.8584243, 2.223666], 'ShoulderLeft': [1.1082201, 0.6979679, 2.271204], 'ElbowLeft': [1.04043937, 0.478385657, 2.34808254], 'WristLeft': [1.0676204, 0.238743186, 2.40241265], 'HandLeft': [1.08398843, 0.1778442, 2.43945122], 'ShoulderRight': [1.33265829, 0.703523457, 2.357809], 'ElbowRight': [1.274684, 0.821835756, 2.166568], 'HipLeft': [1.13564837, 0.356545329, 2.46547627], 'KneeLeft': [1.12503707, 0.07171545, 2.65931654], 'AnkleLeft': [1.11905074, -0.418274134, 2.96960521], 'FootLeft': [1.14727867, -0.4776392, 2.90837026], 'HipRight': [1.24287474, 0.33008185, 2.5252], 'AnkleRight': [1.2549957, -0.2920488, 2.91635752], 'FootRight': [1.27036166, -0.356151819, 2.84691668], 'SpineShoulder': [1.219242, 0.7395565, 2.31427169], 'HandTipLeft': [1.105897, 0.126632735, 2.47195315], 'ThumbLeft': [1.05488551, 0.1548877, 2.447436]};0;0;0;0.444;Scratching;-111.100;-1.213;2.405;23.900;-1.333;2.358;-1.108;2.271;-1.219;2.314
34;AW_221120;2020-11-22 14:56:24.486492;frontaldl;1.833;0.000;0.000;0.0;0.0;0.0;0.0;0.000;4037934527;-1.206;2.403;1.543;14:56:24.4864921;{'SpineBase': [1.19458616, 0.3452519, 2.51868629], 'SpineMid': [1.20554161, 0.572463334, 2.40258884], 'Neck': [1.21072459, 0.7932555, 2.279505], 'Head': [1.26005948, 0.8585712, 2.21879864], 'ShoulderLeft': [1.0986861, 0.6979997, 2.268424], 'ElbowLeft': [1.0290966, 0.469046265, 2.34393883], 'WristLeft': [1.05601192, 0.245273, 2.38988614], 'HandLeft': [1.07228553, 0.179623574, 2.42386937], 'ShoulderRight': [1.32694888, 0.7067504, 2.35828829], 'HipLeft': [1.12712371, 0.352300018, 2.46506763], 'KneeLeft': [1.11673486, 0.0708761662, 2.6629734], 'AnkleLeft': [1.1222173, -0.4234203, 2.9713428], 'FootLeft': [1.14427853, -0.4767026, 2.910695], 'HipRight': [1.23716414, 0.3318941, 2.52216983], 'KneeRight': [1.285089, 0.06710323, 2.730286], 'AnkleRight': [1.27127707, -0.274189383, 2.93252277], 'FootRight': [1.2873739, -0.33833915, 2.863377], 'SpineShoulder': [1.21035826, 0.7390405, 2.311657], 'HandTipLeft': [1.08247709, 0.1254909, 2.45471978], 'ThumbLeft': [1.04286742, 0.167392537, 2.42150021]};0;0;0;0.445;Scratching;-111.490;-1.206;2.403;23.510;-1.327;2.358;-1.099;2.268;-1.210;2.312
35;AW_221120;2020-11-22 14:56:24.720897;frontaldl;1.833;0.000;0.000;0.0;0.0;0.0;0.0;0.000;4037934527;-1.189;2.397;1.543;14:56:24.7208975;{'SpineBase': [1.177928, 0.3465742, 2.51515722], 'SpineMid': [1.18885207, 0.5709115, 2.39715171], 'Neck': [1.19447362, 0.788975954, 2.271987], 'Head': [1.24695575, 0.856577933, 2.21250081], 'ShoulderLeft': [1.08636892, 0.695904434, 2.2621634], 'ElbowLeft': [1.01764131, 0.474315137, 2.33862829], 'WristLeft': [1.04472268, 0.2390228, 2.391184], 'HandLeft': [1.05784178, 0.179771811, 2.42833543], 'ShoulderRight': [1.3099432, 0.696038246, 2.3551228], 'ElbowRight': [1.25849521, 0.820860565, 2.15392852], 'HipLeft': [1.11144507, 0.350893855, 2.46233249], 'KneeLeft': [1.09483075, 0.06982169, 2.66063166], 'AnkleLeft': [1.12233651, -0.273676157, 2.85659552], 'FootLeft': [1.13936079, -0.3378973, 2.78738737], 'HipRight': [1.2204206, 0.335537761, 2.5183208], 'KneeRight': [1.25546861, 0.0649791062, 2.723203], 'AnkleRight': [1.24824488, -0.2827762, 2.914484], 'FootRight': [1.26451838, -0.346996844, 2.845584], 'SpineShoulder': [1.19397163, 0.7354594, 2.304655], 'HandTipLeft': [1.07552791, 0.127020821, 2.45863152], 'ThumbLeft': [1.02625918, 0.165586621, 2.4365716]};0;0;0;0.442;Scratching;-112.580;-1.189;2.397;22.420;-1.310;2.355;-1.086;2.262;-1.194;2.305
36;AW_221120;2020-11-22 14:56:24.921655;frontaldl;1.833;0.000;0.000;0.0;0.0;0.0;0.0;0.000;4037934527;-1.179;2.397;1.559;14:56:24.9216558;{'SpineBase': [1.16432762, 0.33980754, 2.53013873], 'SpineMid': [1.17919779, 0.5645858, 2.3970437], 'Neck': [1.18593943, 0.780686557, 2.258942], 'Head': [1.23831511, 0.850100756, 2.196876], 'ShoulderLeft': [1.07833874, 0.6874851, 2.25092316], 'ElbowLeft': [1.00388956, 0.450694829, 2.336552], 'WristLeft': [1.02927256, 0.2234611, 2.406609], 'HandLeft': [1.04221213, 0.16527693, 2.4486115], 'ShoulderRight': [1.29237127, 0.638256967, 2.34688282], 'ElbowRight': [1.25410855, 0.809739053, 2.144229], 'HipLeft': [1.09647489, 0.3431599, 2.48062849], 'KneeLeft': [1.08273113, 0.0583942756, 2.6741426], 'AnkleLeft': [1.12736571, -0.289668679, 2.85871983], 'FootLeft': [1.13832951, -0.355439335, 2.78886342], 'HipRight': [1.20787907, 0.3306811, 2.53166962], 'KneeRight': [1.268185, 0.0585813634, 2.72778964], 'AnkleRight': [1.26534855, -0.2807153, 2.93288827], 'FootRight': [1.27552223, -0.346655458, 2.86334133], 'SpineShoulder': [1.185253, 0.7279181, 2.29527664], 'HandTipLeft': [1.05490732, 0.120222725, 2.48327518], 'ThumbLeft': [1.01223612, 0.15231, 2.44857621]};0;0;0;0.454;Scratching;-114.150;-1.179;2.397;20.850;-1.292;2.347;-1.078;2.251;-1.185;2.295
37;AW_221120;2020-11-22 14:56:25.154509;frontaldl;1.833;0.000;0.000;0.0;0.0;0.0;0.0;0.000;4037934527;-1.185;2.411;1.536;14:56:25.1545096;{'SpineBase': [1.18030119, 0.3567647, 2.54699731], 'SpineMid': [1.184521, 0.5740319, 2.41068983], 'Neck': [1.18468308, 0.7858922, 2.26890826], 'Head': [1.24048734, 0.8516594, 2.2062614], 'ShoulderLeft': [1.07856846, 0.6907663, 2.25668168], 'ElbowLeft': [1.0028851, 0.464525461, 2.341198], 'WristLeft': [1.03151166, 0.231817231, 2.40867519], 'HandLeft': [1.045638, 0.186466321, 2.445579], 'ShoulderRight': [1.30510318, 0.749819, 2.37607455], 'ElbowRight': [1.25703847, 0.8105388, 2.159924], 'HipLeft': [1.11918747, 0.349794835, 2.4983542], 'KneeLeft': [1.08815813, 0.0601018742, 2.68504262], 'AnkleLeft': [1.11827648, -0.417861223, 2.9588232], 'FootLeft': [1.13860023, -0.4768055, 2.913875], 'HipRight': [1.218434, 0.35687986, 2.546751], 'KneeRight': [1.28338158, 0.08877575, 2.74627352], 'AnkleRight': [1.29206622, -0.198816508, 3.016118], 'FootRight': [1.32334888, -0.272561431, 3.03598738], 'SpineShoulder': [1.18544912, 0.733807445, 2.305647], 'HandTipLeft': [1.05668557, 0.139441088, 2.4746933], 'ThumbLeft': [1.02017486, 0.19817543, 2.44030786]};0;0;0;0.448;Scratching;-117.790;-1.185;2.411;17.210;-1.305;2.376;-1.079;2.257;-1.185;2.306
38;AW_221120;2020-11-22 14:56:25.388052;frontaldl;1.833;0.000;0.000;0.0;0.0;0.0;0.0;0.000;4037934527;-1.211;2.461;1.531;14:56:25.3880521;{'SpineBase': [1.203893, 0.370170951, 2.58710361], 'SpineMid': [1.21053588, 0.597392857, 2.46147871], 'Neck': [1.213734, 0.818425238, 2.32902718], 'Head': [1.26795149, 0.8855491, 2.27607632], 'ShoulderLeft': [1.10501015, 0.717417538, 2.31164765], 'ElbowLeft': [1.030097, 0.491250455, 2.40067863], 'WristLeft': [1.0476445, 0.2919187, 2.44082379], 'HandLeft': [1.06631672, 0.22739026, 2.47911], 'ShoulderRight': [1.32928169, 0.736619532, 2.41675258], 'WristRight': [1.18791139, 0.8870001, 2.10441256], 'HipLeft': [1.13589168, 0.3666382, 2.536637], 'KneeLeft': [1.10101008, 0.06903153, 2.71234632], 'AnkleLeft': [1.11318886, -0.422148257, 2.9686625], 'FootLeft': [1.13735473, -0.4762957, 2.91487145], 'HipRight': [1.24901164, 0.366404, 2.58822775], 'KneeRight': [1.307899, 0.118201159, 2.81044149], 'AnkleRight': [1.29588711, -0.138186872, 3.10901], 'FootRight': [1.32559657, -0.207169086, 3.13808513], 'SpineShoulder': [1.213667, 0.76412493, 2.363476], 'HandTipLeft': [1.07387, 0.169100016, 2.50133443], 'ThumbLeft': [1.03586864, 0.237207249, 2.453929]};0;0;0;0.453;Scratching;-115.110;-1.211;2.461;19.890;-1.329;2.417;-1.105;2.312;-1.214;2.363
39;AW_221120;2020-11-22 14:56:25.590710;frontaldl;1.833;0.000;0.000;0.0;0.0;0.0;0.0;0.000;4037934527;-1.267;2.542;1.670;14:56:25.5907109;{'SpineBase': [1.24840069, 0.3977156, 2.671581], 'SpineMid': [1.26697862, 0.6300448, 2.541794], 'Neck': [1.28156722, 0.856025636, 2.40551448], 'Head': [1.33244646, 0.922300458, 2.35199046], 'ShoulderLeft': [1.17573023, 0.7599168, 2.39479232], 'ElbowLeft': [1.08458567, 0.535098135, 2.49283743], 'WristLeft': [1.093051, 0.3112294, 2.54033136], 'HandLeft': [1.10679793, 0.261768, 2.580497], 'ShoulderRight': [1.40572023, 0.8072992, 2.50653768], 'ElbowRight': [1.3302505, 0.8814333, 2.30670357], 'WristRight': [1.21442068, 0.9404205, 2.145154], 'HipLeft': [1.18439591, 0.391084164, 2.6217742], 'KneeLeft': [1.14196813, 0.07678945, 2.77054715], 'AnkleLeft': [1.11268115, -0.413959056, 2.97143626], 'FootLeft': [1.14265668, -0.475502729, 2.912192], 'HipRight': [1.28944707, 0.397057563, 2.67296219], 'KneeRight': [1.3332808, 0.139511347, 2.890104], 'AnkleRight': [1.33235109, -0.260481358, 3.24125051], 'FootRight': [1.384358, -0.3033611, 3.23595119], 'SpineShoulder': [1.27872634, 0.8005019, 2.44089842], 'HandTipLeft': [1.1183337, 0.211184144, 2.59874034], 'ThumbLeft': [1.07775247, 0.265196532, 2.58320022]};-30;-40;0;0.465;Scratching;-115.910;-1.267;2.542;19.090;-1.406;2.507;-1.176;2.395;-1.279;2.441
40;AW_221120;2020-11-22 14:56:25.823702;frontaldl;1.833;0.000;0.000;0.0;0.0;0.0;0.0;0.000;4037934527;-1.319;2.616;1.659;14:56:25.8237024;{'SpineBase': [1.29756033, 0.448383629, 2.749175], 'SpineMid': [1.31911767, 0.6746517, 2.616182], 'Neck': [1.33604419, 0.895047843, 2.47631168], 'Head': [1.38214278, 0.962124467, 2.4168756], 'ShoulderLeft': [1.21922863, 0.8034239, 2.468885], 'ElbowLeft': [1.12990022, 0.592155337, 2.58511257], 'WristLeft': [1.1331383, 0.391308, 2.627161], 'ShoulderRight': [1.46355593, 0.8459882, 2.57965922], 'ElbowRight': [1.397729, 0.938390732, 2.36174822], 'HipLeft': [1.23814, 0.443784148, 2.70196462], 'KneeLeft': [1.19985282, 0.115910083, 2.82635283], 'AnkleLeft': [1.13400555, -0.227731973, 3.015175], 'FootLeft': [1.13049924, -0.322647333, 2.98847747], 'HipRight': [1.33376229, 0.4450218, 2.74703622], 'KneeRight': [1.36743355, 0.164923742, 2.94185615], 'AnkleRight': [1.33005, -0.254851043, 3.24081039], 'FootRight': [1.38484144, -0.304119736, 3.23772049], 'SpineShoulder': [1.3326664, 0.840881765, 2.51262283], 'HandTipLeft': [1.16566348, 0.2709225, 2.6860714], 'ThumbLeft': [1.12429893, 0.329396456, 2.6573], 'HandTipRight': [1.41265583, 0.7314616, 2.52803755], 'ThumbRight': [1.41501439, 0.8224032, 2.53033352]};-5;-5;-5;0.460;Scratching;-114.390;-1.319;2.616;20.610;-1.464;2.580;-1.219;2.469;-1.333;2.513
41;AW_221120;2020-11-22 14:56:26.058085;frontaldl;1.833;0.000;0.000;0.0;0.0;0.0;0.0;0.000;4037934527;-1.325;2.672;1.524;14:56:26.0580852;{'SpineBase': [1.31403685, 0.477165848, 2.79934764], 'SpineMid': [1.32468641, 0.7058017, 2.67207766], 'Neck': [1.330879, 0.9289383, 2.539286], 'Head': [1.378131, 0.9968638, 2.48455572], 'ShoulderLeft': [1.21611106, 0.8379229, 2.53023267], 'ElbowLeft': [1.12699211, 0.6245516, 2.640247], 'WristLeft': [1.13305426, 0.424769133, 2.67899656], 'HandLeft': [1.14606619, 0.378371745, 2.70683646], 'ShoulderRight': [1.46300232, 0.877343833, 2.63579535], 'ElbowRight': [1.38249958, 0.962966, 2.42105317], 'HipLeft': [1.251692, 0.46345526, 2.75517941], 'KneeLeft': [1.2475338, 0.155176565, 2.91649914], 'AnkleLeft': [1.14947045, -0.0487403, 3.23880768], 'HipRight': [1.35310638, 0.4826135, 2.79490781], 'KneeRight': [1.39501941, 0.223962158, 2.962051], 'AnkleRight': [1.34705353, -0.110584587, 3.17029667], 'FootRight': [1.36782122, -0.175838992, 3.10358739], 'SpineShoulder': [1.330246, 0.874021, 2.57373428], 'HandTipLeft': [1.16459882, 0.3109748, 2.72736955], 'ThumbLeft': [1.115419, 0.393856019, 2.66890025], 'HandTipRight': [1.382076, 0.7534022, 2.57160354], 'ThumbRight': [1.38313687, 0.8165888, 2.56857181]};0;0;0;0.457;Undefined;-113.150;-1.325;2.672;21.850;-1.463;2.636;-1.216;2.530;-1.330;2.574
42;AW_221120;2020-11-22 14:56:26.286897;frontaldl;1.833;0.000;0.000;0.0;0.0;0.0;0.0;0.000;4037934527;-1.296;2.744;1.556;14:56:26.2868976;{'SpineBase': [1.29273486, 0.4978751, 2.87977171], 'SpineMid': [1.29556108, 0.7332021, 2.74380565], 'Neck': [1.293872, 0.9624266, 2.60174012], 'Head': [1.34329939, 1.03804338, 2.54552746], 'ShoulderLeft': [1.17969859, 0.873230338, 2.59396076], 'ElbowLeft': [1.08737826, 0.6628299, 2.69535971], 'WristLeft': [1.11425126, 0.403915733, 2.74867487], 'HandLeft': [1.11148834, 0.3695315, 2.78116727], 'ShoulderRight': [1.4284215, 0.9064646, 2.706962], 'ElbowRight': [1.34012187, 0.9942522, 2.49893332], 'HipLeft': [1.2338053, 0.488207072, 2.83786631], 'KneeLeft': [1.20674038, 0.204733148, 3.03329229], 'AnkleLeft': [1.15364623, -0.02488332, 3.34777522], 'FootLeft': [1.17678487, -0.0907520354, 3.280754], 'HipRight': [1.32918644, 0.498893082, 2.87229538], 'KneeRight': [1.3707087, 0.240065277, 3.04659224], 'AnkleRight': [1.33871341, -0.117129095, 3.21760035], 'FootRight': [1.36028838, -0.182283252, 3.15118861], 'SpineShoulder': [1.29513526, 0.9060658, 2.63855147], 'HandTipLeft': [1.12697244, 0.318736166, 2.79863882], 'ThumbLeft': [1.08164418, 0.345836252, 2.782667], 'HandTipRight': [1.32542384, 0.8030557, 2.62368536], 'ThumbRight': [1.32105076, 0.817027569, 2.61433315]};0;0;0;0.474;Scratching;-114.430;-1.296;2.744;20.570;-1.428;2.707;-1.180;2.594;-1.295;2.639
43;AW_221120;2020-11-22 14:56:26.487127;frontaldl;1.833;0.000;0.000;0.0;0.0;0.0;0.0;0.000;4037934527;-1.262;2.813;1.659;14:56:26.4871271;{'SpineBase': [1.26847148, 0.5372629, 2.96662426], 'SpineMid': [1.26196384, 0.760717332, 2.813095], 'Neck': [1.25179863, 0.9788968, 2.65335751], 'Head': [1.300906, 1.05368137, 2.59413], 'ShoulderLeft': [1.13674951, 0.894686639, 2.65005636], 'ElbowLeft': [1.047842, 0.6911619, 2.75408864], 'WristLeft': [1.05205834, 0.4386946, 2.81921244], 'HandLeft': [1.0540669, 0.38711825, 2.84753036], 'ShoulderRight': [1.3915602, 0.9341129, 2.76295948], 'ElbowRight': [1.31239343, 1.03848553, 2.53808212], 'WristRight': [1.355233, 0.8509698, 2.72493982], 'HandRight': [1.32698774, 0.7807463, 2.73119688], 'HipLeft': [1.2111783, 0.522236168, 2.9322207], 'KneeLeft': [1.2147156, 0.236143291, 3.12414312], 'AnkleLeft': [1.14747548, -0.107804164, 3.47160864], 'FootLeft': [1.1757437, -0.164430842, 3.46829152], 'HipRight': [1.30427384, 0.5434844, 2.951189], 'KneeRight': [1.31792045, 0.233137369, 3.10782743], 'AnkleRight': [1.34277511, -0.246623039, 3.28127861], 'FootRight': [1.34884548, -0.287936479, 3.31130362], 'SpineShoulder': [1.25509572, 0.9252353, 2.69456649], 'HandTipLeft': [1.07073641, 0.337822437, 2.87439632], 'ThumbLeft': [1.0316906, 0.369297, 2.84907722], 'HandTipRight': [1.325304, 0.7422866, 2.75463343], 'ThumbRight': [1.34436643, 0.7918008, 2.73454547]};-30;-45;15;0.474;Scratching;-113.900;-1.262;2.813;21.100;-1.392;2.763;-1.137;2.650;-1.255;2.695
44;AW_221120;2020-11-22 14:56:26.722787;frontaldl;1.833;0.000;0.000;0.0;0.0;0.0;0.0;0.000;4037934527;-1.223;2.869;1.681;14:56:26.7227875;{'SpineBase': [1.22992158, 0.5944856, 3.02425861], 'SpineMid': [1.22264266, 0.8070098, 2.86925983], 'Neck': [1.21115518, 1.0156368, 2.70717263], 'Head': [1.25934064, 1.08912253, 2.6413312], 'ShoulderLeft': [1.098511, 0.928755164, 2.7036593], 'ElbowLeft': [1.00422466, 0.7263137, 2.82953334], 'WristLeft': [1.00143385, 0.500165164, 2.91015935], 'HandLeft': [1.00403285, 0.452596515, 2.96449256], 'ShoulderRight': [1.35175788, 0.968854, 2.81769824], 'ElbowRight': [1.27277958, 1.05321372, 2.57532167], 'WristRight': [1.32414234, 0.880567551, 2.773017], 'HandRight': [1.28145754, 0.8372657, 2.77673125], 'HipLeft': [1.17347038, 0.5978261, 2.97998166], 'KneeLeft': [1.1555717, 0.308093339, 3.16858935], 'AnkleLeft': [1.14166224, -0.100352071, 3.496007], 'FootLeft': [1.19485319, -0.168580264, 3.46057725], 'HipRight': [1.26612294, 0.587064147, 3.015471], 'KneeRight': [1.29565263, 0.2666887, 3.1519115], 'AnkleRight': [1.3519119, -0.197905123, 3.32723355], 'FootRight': [1.37325239, -0.2639898, 3.26289749], 'SpineShoulder': [1.21478927, 0.964279652, 2.74905467], 'HandTipLeft': [1.01197374, 0.410510719, 2.9944768], 'ThumbLeft': [0.9726128, 0.449572653, 2.95400023], 'HandTipRight': [1.30361319, 0.7951811, 2.83287954], 'ThumbRight': [1.31012166, 0.874841869, 2.78380013]};-65;-45;85;0.461;Undefined;-114.240;-1.223;2.869;20.760;-1.352;2.818;-1.099;2.704;-1.215;2.749
45;AW_221120;2020-11-22 14:56:26.923261;frontaldl;1.833;0.000;0.000;0.0;0.0;0.0;0.0;0.000;4037934527;-1.205;2.902;1.549;14:56:26.9232610;{'SpineBase': [1.21360815, 0.6188771, 3.053237], 'SpineMid': [1.20542479, 0.835614562, 2.90225482], 'Neck': [1.19330287, 1.04655349, 2.74406719], 'Head': [1.24159789, 1.1174767, 2.68254924], 'ShoulderLeft': [1.07653129, 0.9531731, 2.73627663], 'ElbowLeft': [0.9784416, 0.749602437, 2.86517715], 'WristLeft': [0.9760396, 0.5442231, 2.95780659], 'HandLeft': [0.9766507, 0.494783819, 3.01412988], 'ShoulderRight': [1.33443367, 1.00444639, 2.85830665], 'WristRight': [1.3076812, 0.914215863, 2.80694], 'HipLeft': [1.15824032, 0.607730567, 3.01057625], 'KneeLeft': [1.147561, 0.3089175, 3.18697262], 'AnkleLeft': [1.14241457, -0.105644263, 3.4992528], 'FootLeft': [1.21618557, -0.151864439, 3.489706], 'HipRight': [1.24894929, 0.620476, 3.04536], 'KneeRight': [1.30426693, 0.329384178, 3.22151351], 'AnkleRight': [1.31035, 0.0130285351, 3.45791459], 'FootRight': [1.34442723, -0.0372016951, 3.503389], 'SpineShoulder': [1.19704807, 0.99477, 2.78502321], 'HandTipLeft': [0.9843105, 0.444976628, 3.04250622], 'ThumbLeft': [0.942311049, 0.4852147, 3.01416683], 'HandTipRight': [1.28955913, 0.821211457, 2.87090373], 'ThumbRight': [1.28947258, 0.911841154, 2.80983329]};0;0;0;0.462;Undefined;-115.320;-1.205;2.902;19.680;-1.334;2.858;-1.077;2.736;-1.197;2.785
46;AW_221120;2020-11-22 14:56:27.154151;frontaldl;1.833;0.000;0.000;0.0;0.0;0.0;0.0;0.000;4037934527;-1.198;2.937;1.673;14:56:27.1541514;{'SpineBase': [1.20386159, 0.6450491, 3.07443261], 'SpineMid': [1.19777942, 0.8643931, 2.93708062], 'Neck': [1.18804431, 1.07801974, 2.79300952], 'Head': [1.23677886, 1.15442657, 2.74073315], 'ShoulderLeft': [1.07262325, 0.9861797, 2.78264761], 'ElbowLeft': [0.977800667, 0.774710834, 2.89266014], 'WristLeft': [0.9793398, 0.5501893, 2.97329617], 'HandLeft': [0.989270747, 0.4982749, 3.01647925], 'ShoulderRight': [1.329457, 1.042388, 2.90986252], 'ElbowRight': [1.37293, 0.8405377, 3.079238], 'WristRight': [1.40774536, 0.611520231, 3.21618938], 'HandRight': [1.41476107, 0.5762299, 3.24149323], 'HipLeft': [1.143136, 0.632386863, 3.02519965], 'KneeLeft': [1.13995981, 0.332386434, 3.20001435], 'AnkleLeft': [1.1394, -0.1052544, 3.49909449], 'FootLeft': [1.169397, -0.164468139, 3.46506023], 'HipRight': [1.2448653, 0.6482603, 3.07354546], 'KneeRight': [1.30916512, 0.4021065, 3.29792166], 'AnkleRight': [1.314214, 0.133746445, 3.58562517], 'SpineShoulder': [1.19114339, 1.02558208, 2.83038521], 'HandTipLeft': [0.996786058, 0.453951716, 3.05709624], 'ThumbLeft': [0.962913454, 0.5017239, 3.015846], 'HandTipRight': [1.42128134, 0.5371935, 3.25824237], 'ThumbRight': [1.3574729, 0.5463693, 3.21566677]};0;0;0;0.452;Undefined;-116.350;-1.198;2.937;18.650;-1.329;2.910;-1.073;2.783;-1.191;2.830
47;AW_221120;2020-11-22 14:56:27.357730;frontaldl;1.833;0.000;0.000;0.0;0.0;0.0;0.0;0.000;4037934527;-1.215;2.989;1.674;14:56:27.3577307;{'SpineBase': [1.21983135, 0.670506537, 3.123339], 'SpineMid': [1.21462107, 0.8937491, 2.989291], 'Neck': [1.20626438, 1.11075664, 2.848665], 'Head': [1.25991964, 1.18215334, 2.80364013], 'ShoulderLeft': [1.09627211, 1.01662266, 2.83929586], 'ElbowLeft': [1.0053072, 0.799957335, 2.93742633], 'WristLeft': [1.01237464, 0.5612055, 3.00467634], 'HandLeft': [1.02951479, 0.514463842, 3.05253267], 'ShoulderRight': [1.33729041, 1.06646788, 2.953457], 'ElbowRight': [1.39373815, 0.881447256, 3.13577437], 'WristRight': [1.4474647, 0.653602242, 3.26830316], 'HandRight': [1.4500525, 0.6176302, 3.29841828], 'HipLeft': [1.15578151, 0.6549589, 3.06844115], 'KneeLeft': [1.14711511, 0.3463447, 3.23069787], 'AnkleLeft': [1.14111507, -0.103449211, 3.50652337], 'FootLeft': [1.16862321, -0.161733538, 3.461746], 'HipRight': [1.26441216, 0.675123453, 3.12811685], 'KneeRight': [1.32893693, 0.428621, 3.35221887], 'AnkleRight': [1.33307958, 0.151065931, 3.631419], 'SpineShoulder': [1.20897174, 1.0574888, 2.88515067], 'HandTipLeft': [1.04407513, 0.46617493, 3.07828951], 'ThumbLeft': [0.998415947, 0.5031105, 3.06583357], 'HandTipRight': [1.45318294, 0.57503283, 3.31692553], 'ThumbRight': [1.42591989, 0.619866, 3.30107141]};0;0;0;0.455;Undefined;-115.350;-1.215;2.989;19.650;-1.337;2.953;-1.096;2.839;-1.209;2.885
48;AW_221120;2020-11-22 14:56:27.587156;frontaldl;1.833;0.000;0.000;0.0;0.0;0.0;0.0;0.000;4037934527;-1.258;3.083;1.678;14:56:27.5871560;{'SpineBase': [1.25830638, 0.7165137, 3.21080136], 'SpineMid': [1.25778747, 0.9393405, 3.08263874], 'Neck': [1.2536912, 1.156597, 2.94741082], 'Head': [1.30442882, 1.22679579, 2.89369082], 'ShoulderLeft': [1.14624357, 1.06476128, 2.93712664], 'ElbowLeft': [1.05779839, 0.8381243, 3.04061747], 'WristLeft': [1.08584726, 0.6499375, 3.1063478], 'ShoulderRight': [1.37071085, 1.09955192, 3.038112], 'ElbowRight': [1.4317323, 0.9196266, 3.22346926], 'WristRight': [1.49689639, 0.6942094, 3.354717], 'HandRight': [1.49953032, 0.6658816, 3.38090134], 'HipLeft': [1.19233418, 0.700318158, 3.161963], 'KneeLeft': [1.17639756, 0.3777091, 3.30054522], 'AnkleLeft': [1.140457, -0.102370895, 3.508485], 'FootLeft': [1.17620492, -0.167259544, 3.461812], 'HipRight': [1.30450535, 0.721309, 3.2095468], 'KneeRight': [1.34818113, 0.515424, 3.401712], 'SpineShoulder': [1.25537848, 1.1032021, 2.9826262], 'HandTipLeft': [1.08861971, 0.547229648, 3.163147], 'ThumbLeft': [1.06072509, 0.556479633, 3.15716648], 'HandTipRight': [1.501764, 0.622199059, 3.39484835], 'ThumbRight': [1.48057175, 0.677270949, 3.384467]};-25;-35;-10;0.449;Undefined;-114.220;-1.258;3.083;20.780;-1.371;3.038;-1.146;2.937;-1.255;2.983
49;AW_221120;2020-11-22 14:56:27.790655;frontaldl;1.833;0.000;0.000;0.0;0.0;0.0;0.0;0.000;4037934527;-1.292;3.167;1.571;14:56:27.7906555;{'SpineBase': [1.29077506, 0.756849766, 3.30242562], 'SpineMid': [1.29177666, 0.976644337, 3.166522], 'Neck': [1.2894398, 1.19077826, 3.023758], 'Head': [1.3408258, 1.26604319, 2.971171], 'ShoulderLeft': [1.17874455, 1.09913337, 3.01124883], 'ElbowLeft': [1.09179378, 0.88254416, 3.12608647], 'WristLeft': [1.09070182, 0.693567038, 3.19275117], 'HandLeft': [1.10925424, 0.6447631, 3.221288], 'ShoulderRight': [1.421354, 1.14575124, 3.126334], 'ElbowRight': [1.46993554, 0.960289657, 3.310557], 'WristRight': [1.51749289, 0.7870803, 3.42632318], 'HandRight': [1.5318023, 0.7207569, 3.466675], 'HipLeft': [1.22464168, 0.737661242, 3.25166], 'KneeLeft': [1.194048, 0.402961642, 3.364199], 'AnkleLeft': [1.14998364, 0.0182271469, 3.46048713], 'FootLeft': [1.17562008, -0.0477996767, 3.394888], 'HipRight': [1.33758628, 0.7648791, 3.30326438], 'KneeRight': [1.36465693, 0.554289937, 3.47229934], 'AnkleRight': [1.33643222, 0.214082181, 3.673854], 'SpineShoulder': [1.29066384, 1.1381669, 3.06082034], 'HandTipLeft': [1.120061, 0.589281738, 3.24967265], 'ThumbLeft': [1.08119881, 0.649138331, 3.20746684], 'HandTipRight': [1.5374043, 0.6783872, 3.49859285], 'ThumbRight': [1.51941586, 0.6917848, 3.498]};-25;-40;5;0.451;Undefined;-115.380;-1.292;3.167;19.620;-1.421;3.126;-1.179;3.011;-1.291;3.061
50;AW_221120;2020-11-22 14:56:28.021594;frontaldl;1.833;0.000;0.000;0.0;0.0;0.0;0.0;0.000;4037934527;-1.306;3.233;1.553;14:56:28.0215941;{'SpineBase': [1.30243063, 0.8004296, 3.364549], 'SpineMid': [1.30595541, 1.02064788, 3.23316145], 'Neck': [1.306391, 1.23528576, 3.09540176], 'Head': [1.35326123, 1.31362653, 3.04850674], 'ShoulderLeft': [1.19135928, 1.145716, 3.07760835], 'ElbowLeft': [1.1024729, 0.9291774, 3.18625975], 'WristLeft': [1.09884119, 0.7258208, 3.23581862], 'HandLeft': [1.10198808, 0.7030402, 3.25724626], 'ShoulderRight': [1.43055117, 1.179275, 3.18738747], 'ElbowRight': [1.4869504, 1.00476778, 3.37888074], 'WristRight': [1.54392886, 0.8008936, 3.51207352], 'HandRight': [1.54199076, 0.761091769, 3.54798913], 'HipLeft': [1.24134779, 0.790192842, 3.31568313], 'KneeLeft': [1.22236288, 0.455390543, 3.43067956], 'AnkleLeft': [1.142067, 0.1680445, 3.68903184], 'FootLeft': [1.15946484, 0.08096226, 3.70054054], 'HipRight': [1.34428775, 0.7987641, 3.36577535], 'KneeRight': [1.37788951, 0.5980244, 3.51109886], 'AnkleRight': [1.34038866, 0.245987922, 3.690611], 'SpineShoulder': [1.30688834, 1.182571, 3.13114953], 'HandTipLeft': [1.113498, 0.6716004, 3.28838062], 'ThumbLeft': [1.07976341, 0.6930283, 3.22990942], 'HandTipRight': [1.54991961, 0.7141345, 3.55770969], 'ThumbRight': [1.51820982, 0.763282, 3.55739975]};0;0;0;0.448;Undefined;-114.650;-1.306;3.233;20.350;-1.431;3.187;-1.191;3.078;-1.307;3.131
51;AW_221120;2020-11-22 14:56:28.256304;frontaldl;1.833;0.000;0.000;0.0;0.0;0.0;0.0;0.000;4037934527;-1.278;3.289;1.712;14:56:28.2563044;{'SpineBase': [1.28235614, 0.823254049, 3.41480446], 'SpineMid': [1.27804089, 1.0494839, 3.28901458], 'Neck': [1.27000391, 1.27012193, 3.1562376], 'Head': [1.31757784, 1.35178816, 3.11159515], 'ShoulderLeft': [1.158684, 1.17035091, 3.132713], 'ElbowLeft': [1.07922041, 0.9678829, 3.22725034], 'WristLeft': [1.09407961, 0.74368006, 3.295813], 'HandLeft': [1.09963822, 0.6975748, 3.337114], 'ShoulderRight': [1.39162, 1.23626137, 3.26151276], 'WristRight': [1.46821, 0.8040617, 3.56510139], 'HandRight': [1.480225, 0.7747097, 3.59511948], 'HipLeft': [1.22322941, 0.808141947, 3.36790919], 'KneeLeft': [1.231279, 0.524954855, 3.56547952], 'AnkleLeft': [1.11298978, 0.16522482, 3.95055914], 'FootLeft': [1.16347754, 0.0928197354, 3.89337182], 'HipRight': [1.3223201, 0.826151431, 3.41183615], 'KneeRight': [1.3409518, 0.5317164, 3.59396839], 'AnkleRight': [1.30874479, 0.1694616, 3.75299358], 'SpineShoulder': [1.2726897, 1.21589971, 3.19083452], 'HandTipLeft': [1.11527967, 0.6379955, 3.37096477], 'ThumbLeft': [1.08039534, 0.6843297, 3.333267], 'HandTipRight': [1.48294747, 0.733028531, 3.618174], 'ThumbRight': [1.4561975, 0.7911324, 3.568889]};0;0;0;0.452;Undefined;-118.940;-1.278;3.289;16.060;-1.392;3.262;-1.159;3.133;-1.273;3.191
52;AW_221120;2020-11-22 14:56:28.487487;frontaldl;1.833;0.000;0.000;0.0;0.0;0.0;0.0;0.000;4037934527;-1.227;3.358;1.572;14:56:28.4874878;{'SpineBase': [1.23095787, 0.8623942, 3.49842215], 'SpineMid': [1.2269783, 1.083198, 3.357972], 'Neck': [1.21963286, 1.29851377, 3.21045756], 'Head': [1.26579547, 1.37878728, 3.162432], 'ShoulderLeft': [1.10981333, 1.20971715, 3.20044255], 'ElbowLeft': [1.02329433, 1.00226927, 3.29357219], 'WristLeft': [1.0449152, 0.766526461, 3.35177612], 'HandLeft': [1.03966987, 0.7424251, 3.358205], 'ShoulderRight': [1.33875024, 1.243688, 3.30519843], 'HipLeft': [1.170939, 0.849639058, 3.45778584], 'KneeLeft': [1.12612414, 0.573316753, 3.66168571], 'AnkleLeft': [1.09918189, 0.170918286, 4.00301075], 'FootLeft': [1.136776, 0.100790657, 3.92568445], 'HipRight': [1.27242541, 0.8628939, 3.4893055], 'KneeRight': [1.28348351, 0.548986137, 3.643461], 'AnkleRight': [1.2961334, 0.165528849, 3.74830914], 'FootRight': [1.31949782, 0.09804446, 3.68198586], 'SpineShoulder': [1.222088, 1.24560535, 3.24874687], 'HandTipLeft': [1.06178653, 0.7022911, 3.39277768], 'ThumbLeft': [1.05632925, 0.769778848, 3.34700012], 'HandTipRight': [1.40523994, 0.759761035, 3.659995], 'ThumbRight': [1.37763536, 0.7997848, 3.62000012]};-10;-45;-10;0.457;Undefined;-114.590;-1.227;3.358;20.410;-1.339;3.305;-1.110;3.200;-1.222;3.249
53;AW_221120;2020-11-22 14:56:28.720717;frontaldl;1.833;0.000;0.000;0.0;0.0;0.0;0.0;0.000;4037934527;-1.184;3.411;1.551;14:56:28.7207176;{'SpineBase': [1.1817354, 0.899692953, 3.551494], 'SpineMid': [1.18353879, 1.11816525, 3.41113329], 'Neck': [1.18210924, 1.33105338, 3.26368046], 'Head': [1.224476, 1.40443671, 3.211679], 'ShoulderLeft': [1.07049918, 1.23510408, 3.25481033], 'ElbowLeft': [0.979816556, 1.03171, 3.35893321], 'WristLeft': [0.9774375, 0.811742246, 3.43904018], 'HandLeft': [0.972240746, 0.792209744, 3.46412086], 'ShoulderRight': [1.29880667, 1.28620827, 3.368264], 'WristRight': [1.38286412, 0.8816459, 3.70396566], 'HipLeft': [1.12616694, 0.896081, 3.500776], 'KneeLeft': [1.06197214, 0.6122182, 3.687958], 'AnkleLeft': [1.08713174, 0.29424724, 3.91940522], 'FootLeft': [1.11296439, 0.204699144, 3.91897869], 'HipRight': [1.22038651, 0.8906078, 3.55162454], 'KneeRight': [1.24607813, 0.56169194, 3.67554116], 'AnkleRight': [1.28025687, 0.2771492, 3.73984456], 'SpineShoulder': [1.18305957, 1.27875984, 3.301961], 'HandTipLeft': [0.9798621, 0.7516821, 3.49284387], 'ThumbLeft': [0.9887975, 0.8022135, 3.44942856], 'HandTipRight': [1.3850615, 0.8055781, 3.74627471], 'ThumbRight': [1.36780822, 0.8676983, 3.74074984]};-85;-25;35;0.454;Undefined;-116.420;-1.184;3.411;18.580;-1.299;3.368;-1.070;3.255;-1.183;3.302
